COUNTRY,LOCATION,LATITUDE,LONGITUDE
BELGIUM,BLAREGNIES,50.35,3.8833
BELGIUM,EYNATTEN,50.7000,6.0833
BELGIUM,GD LUX,,
BELGIUM,HILVARENBEEK,,
BELGIUM,LOENHOUT,51.4000,4.6500
BELGIUM,POPPEL,51.43333,5.033333
BELGIUM,'S GRAVENVOEREN,50.7667,5.7667
BELGIUM,ZANDVLIET,51.3667,4.3000
BELGIUM,ZEEBRUGGE,51.3333,3.2000
BELGIUM,ZELZATE,51.1896,3.80777
